{
  "cities": [
    {
      "cityName": "Lisbon",
      "country": "Portugal",
      "emoji": "ðŸ‡µðŸ‡¹",
      "date": "2027-10-31T15:59:59.138Z",
      "notes": "My favorite city so far!",
      "position": {
        "lat": 38.727881642324164,
        "lng": -9.140900099907554
      },
      "id": "73930385"
    },
    {
      "cityName": "Madrid",
      "country": "Spain",
      "emoji": "ðŸ‡ªðŸ‡¸",
      "date": "2027-07-15T08:22:53.976Z",
      "notes": "",
      "position": {
        "lat": 40.46635901755316,
        "lng": -3.7133789062500004
      },
      "id": "17806751"
    },
    {
      "cityName": "Berlin",
      "country": "Germany",
      "emoji": "ðŸ‡©ðŸ‡ª",
      "date": "2027-02-12T09:24:11.863Z",
      "notes": "Amazing ðŸ˜ƒ",
      "position": {
        "lat": 52.53586782505711,
        "lng": 13.376933665713324
      },
      "id": "98443197"
    },
    {
      "id": "d3b5",
      "cityName": "Canizo",
      "country": "",
      "emoji": "ðŸ‡ªðŸ‡¸",
      "date": "2024-07-16T02:57:20.271Z",
      "notes": "",
      "position": {
        "lat": "41.77131167976407",
        "lng": "-5.537109375000001"
      }
    },
    {
      "id": "55e6",
      "cityName": "Canete",
      "country": "",
      "emoji": "ðŸ‡ªðŸ‡¸",
      "date": "2024-07-16T03:02:18.334Z",
      "notes": "",
      "position": {
        "lat": "39.977120098439634",
        "lng": "-1.6699218750000002"
      }
    },
    {
      "id": "b6a8",
      "cityName": "Canete",
      "country": "",
      "emoji": "ðŸ‡ªðŸ‡¸",
      "date": "2024-07-16T03:02:18.334Z",
      "notes": "",
      "position": {
        "lat": "39.977120098439634",
        "lng": "-1.6699218750000002"
      }
    },
    {
      "id": "1fb4",
      "cityName": "Canete",
      "country": "",
      "emoji": "ðŸ‡ªðŸ‡¸",
      "date": "2024-07-16T03:02:18.334Z",
      "notes": "",
      "position": {
        "lat": "39.977120098439634",
        "lng": "-1.6699218750000002"
      }
    },
    {
      "id": "b3e5",
      "cityName": "Valtierra",
      "country": "",
      "emoji": "ðŸ‡ªðŸ‡¸",
      "date": "2024-07-16T03:02:18.334Z",
      "notes": "",
      "position": {
        "lat": "42.22851735620852",
        "lng": "-1.6479492187500002"
      }
    },
    {
      "id": "331d",
      "cityName": "Salas Altas",
      "country": "",
      "emoji": "ðŸ‡ªðŸ‡¸",
      "date": "2024-07-16T03:03:41.747Z",
      "notes": "",
      "position": {
        "lat": "42.114523952464275",
        "lng": "0.06591796875000001"
      }
    },
    {
      "id": "95cc",
      "cityName": "Molieres",
      "country": "",
      "emoji": "ðŸ‡«ðŸ‡·",
      "date": "2024-07-16T03:03:41.747Z",
      "notes": "",
      "position": {
        "lat": "44.18220395771566",
        "lng": "1.34033203125"
      }
    },
    {
      "id": "cad1",
      "cityName": "Monheurt",
      "country": "",
      "emoji": "ðŸ‡«ðŸ‡·",
      "date": "2024-07-16T03:05:34.414Z",
      "notes": "",
      "position": {
        "lat": "44.32384807250689",
        "lng": "0.30761718750000006"
      }
    },
    {
      "id": "8b28",
      "cityName": "Monheurt",
      "country": "",
      "emoji": "ðŸ‡«ðŸ‡·",
      "date": "2024-07-16T03:05:52.134Z",
      "notes": "",
      "position": {
        "lat": "44.32384807250689",
        "lng": "0.30761718750000006"
      }
    },
    {
      "id": "58bd",
      "cityName": "Monheurt",
      "country": "",
      "emoji": "ðŸ‡«ðŸ‡·",
      "date": "2024-07-16T03:06:10.636Z",
      "notes": "",
      "position": {
        "lat": "44.32384807250689",
        "lng": "0.30761718750000006"
      }
    },
    {
      "id": "3ba1",
      "cityName": "Pouant",
      "country": "",
      "emoji": "ðŸ‡«ðŸ‡·",
      "date": "2024-07-16T03:07:00.388Z",
      "notes": "",
      "position": {
        "lat": "47.010225655683485",
        "lng": "0.26367187500000006"
      }
    },
    {
      "id": "a884",
      "cityName": "Moimenta da Beira",
      "country": "",
      "emoji": "ðŸ‡µðŸ‡¹",
      "date": "2024-07-16T03:12:22.619Z",
      "notes": "",
      "position": {
        "lat": "40.96330795307353",
        "lng": "-7.602539062500001"
      }
    },
    {
      "id": "ef86",
      "cityName": "Berzocana",
      "country": "",
      "emoji": "ðŸ‡ªðŸ‡¸",
      "date": "2024-07-16T03:12:32.849Z",
      "notes": "",
      "position": {
        "lat": "39.470125122358176",
        "lng": "-5.493164062500001"
      }
    }
  ]
}