{
  "cities": [
    {
      "cityName": "Lisbon",
      "country": "Portugal",
      "emoji": "ðŸ‡µðŸ‡¹",
      "date": "2027-10-31T15:59:59.138Z",
      "notes": "My favorite city so far!",
      "position": {
        "lat": 38.727881642324164,
        "lng": -9.140900099907554
      },
      "id": "73930385"
    },
    {
      "cityName": "Madrid",
      "country": "Spain",
      "emoji": "ðŸ‡ªðŸ‡¸",
      "date": "2027-07-15T08:22:53.976Z",
      "notes": "",
      "position": {
        "lat": 40.46635901755316,
        "lng": -3.7133789062500004
      },
      "id": "17806751"
    },
    {
      "cityName": "Berlin",
      "country": "Germany",
      "emoji": "ðŸ‡©ðŸ‡ª",
      "date": "2027-02-12T09:24:11.863Z",
      "notes": "Amazing ðŸ˜ƒ",
      "position": {
        "lat": 52.53586782505711,
        "lng": 13.376933665713324
      },
      "id": "98443197"
    },
    {
      "id": "d3b5",
      "cityName": "Canizo",
      "country": "",
      "emoji": "ðŸ‡ªðŸ‡¸",
      "date": "2024-07-16T02:57:20.271Z",
      "notes": "",
      "position": {
        "lat": "41.77131167976407",
        "lng": "-5.537109375000001"
      }
    },
    {
      "id": "55e6",
      "cityName": "Canete",
      "country": "",
      "emoji": "ðŸ‡ªðŸ‡¸",
      "date": "2024-07-16T03:02:18.334Z",
      "notes": "",
      "position": {
        "lat": "39.977120098439634",
        "lng": "-1.6699218750000002"
      }
    },
    {
      "id": "50ae",
      "cityName": "Almagro",
      "country": "",
      "emoji": "ðŸ‡ªðŸ‡¸",
      "date": "2024-07-17T02:06:55.944Z",
      "notes": "",
      "position": {
        "lat": "38.839707613545144",
        "lng": "-3.8232421875000004"
      }
    },
    {
      "id": "522a",
      "cityName": "La Carolina",
      "country": "",
      "emoji": "ðŸ‡ªðŸ‡¸",
      "date": "2024-07-17T02:08:13.468Z",
      "notes": "",
      "position": {
        "lat": "38.28993659801203",
        "lng": "-3.5375976562500004"
      }
    },
    {
      "id": "1101",
      "cityName": "Fustinana",
      "country": "",
      "emoji": "ðŸ‡ªðŸ‡¸",
      "date": "2024-07-17T02:10:38.041Z",
      "notes": "",
      "position": {
        "lat": "42.06560675405716",
        "lng": "-1.47216796875"
      }
    },
    {
      "id": "e810",
      "cityName": "La Gineta",
      "country": "",
      "emoji": "ðŸ‡ªðŸ‡¸",
      "date": "2024-07-17T02:13:20.204Z",
      "notes": "",
      "position": {
        "lat": "39.07890809706475",
        "lng": "-1.9335937500000002"
      }
    },
    {
      "id": "1b56",
      "cityName": "Lasseube-Propre",
      "country": "",
      "emoji": "ðŸ‡«ðŸ‡·",
      "date": "2024-07-19T01:58:31.732Z",
      "notes": "",
      "position": {
        "lat": "43.56447158721811",
        "lng": "0.5712890625000001"
      }
    }
  ]
}